{"code": "aa", "name": "Albania", "geocoded_name": "Shqip\u00ebria", "latitude": 41.000028, "longitude": 19.9999619}
{"code": "abc", "name": "Alberta", "geocoded_name": "Alberta, Canada", "latitude": 55.001251, "longitude": -115.002136}
{"code": "-ac", "name": "Ashmore and Cartier Islands", "geocoded_name": "Ashmore and Cartier Islands, Australia", "latitude": -12.2354389, "longitude": 123.0851206}
{"code": "aca", "name": "Australian Capital Territory", "geocoded_name": "Australian Capital Territory, Australia", "latitude": -35.4883502, "longitude": 149.0026942}
{"code": "ae", "name": "Algeria", "geocoded_name": "Alg\u00e9rie / \u2d4d\u2d63\u2d63\u2d30\u2d62\u2d3b\u2d54 / \u0627\u0644\u062c\u0632\u0627\u0626\u0631", "latitude": 28.0000272, "longitude": 2.9999825}
{"code": "af", "name": "Afghanistan", "geocoded_name": "\u0627\u0641\u063a\u0627\u0646\u0633\u062a\u0627\u0646", "latitude": 33.7680065, "longitude": 66.2385139}
{"code": "ag", "name": "Argentina", "geocoded_name": "Argentina", "latitude": -34.9964963, "longitude": -64.9672817}
{"code": "-ai", "name": "Anguilla", "geocoded_name": "Anguilla", "latitude": 18.1954947, "longitude": -63.0750234}
{"code": "ai", "name": "Armenia (Republic)", "geocoded_name": "\u0410\u0440\u043c\u0435\u043d\u0438\u044f, 8\u0411, \u041f\u0438\u043e\u043d\u0435\u0440\u0441\u043a\u0430\u044f \u0443\u043b\u0438\u0446\u0430, \u0426\u0430\u0440\u0438\u0446\u044b\u043d\u043e, \u0421\u043e\u0432\u0435\u0442\u0441\u043a\u0438\u0439 \u0440\u0430\u0439\u043e\u043d, \u041a\u0430\u0437\u0430\u043d\u044c, \u0422\u0430\u0442\u0430\u0440\u0441\u0442\u0430\u043d, \u041f\u0440\u0438\u0432\u043e\u043b\u0436\u0441\u043a\u0438\u0439 \u0444\u0435\u0434\u0435\u0440\u0430\u043b\u044c\u043d\u044b\u0439 \u043e\u043a\u0440\u0443\u0433, 420029, \u0420\u043e\u0441\u0441\u0438\u044f", "latitude": 55.8057228, "longitude": 49.185966678941156}
{"code": "-air", "name": "Armenian S.S.R.", "geocoded_name": "\u00c9glise apostolique arm\u00e9nienne Sainte-Marie-Madeleine - Apostolische Armeense kerk Sint-Maria-Magdalena, 1A, Rue Kindermans - Kindermansstraat, Ch\u00e2telain - Kasteleinswijk, Bruxelles - Brussel, Ixelles - Elsene, Brussel-Hoofdstad - Bruxelles-Capitale, R\u00e9gion de Bruxelles-Capitale - Brussels Hoofdstedelijk Gewest, 1050, Belgi\u00eb / Belgique / Belgien", "latitude": 50.8228957, "longitude": 4.365755415176861}
{"code": "aj", "name": "Azerbaijan", "geocoded_name": "Az\u0259rbaycan", "latitude": 40.3936294, "longitude": 47.7872508}
{"code": "-ajr", "name": "Azerbaijan S.S.R.", "geocoded_name": "Ambassade van Azerbeidzjan, 6, Andries Bickerweg, Zorgvliet, Scheveningen, Den Haag, Zuid-Holland, Nederland, 2517 JP, Nederland", "latitude": 52.0880567, "longitude": 4.2852662}
{"code": "aku", "name": "Alaska", "geocoded_name": "Alaska, United States", "latitude": 64.4459613, "longitude": -149.680909}
{"code": "alu", "name": "Alabama", "geocoded_name": "Alabama, United States", "latitude": 33.2588817, "longitude": -86.8295337}
{"code": "am", "name": "Anguilla", "geocoded_name": "Anguilla", "latitude": 18.1954947, "longitude": -63.0750234}
{"code": "an", "name": "Andorra", "geocoded_name": "Andorra", "latitude": 42.5407167, "longitude": 1.5732033}
{"code": "ao", "name": "Angola", "geocoded_name": "Angola", "latitude": -11.8775768, "longitude": 17.5691241}
{"code": "aq", "name": "Antigua and Barbuda", "geocoded_name": "Antigua and Barbuda", "latitude": 17.2234721, "longitude": -61.9554608}
{"code": "aru", "name": "Arkansas", "geocoded_name": "Arkansas, United States", "latitude": 35.2048883, "longitude": -92.4479108}
{"code": "as", "name": "American Samoa", "geocoded_name": "American Samoa, United States", "latitude": -14.297124, "longitude": -170.7131481}
{"code": "at", "name": "Australia", "geocoded_name": "Australia", "latitude": -24.7761086, "longitude": 134.755}
{"code": "au", "name": "Austria", "geocoded_name": "\u00d6sterreich", "latitude": 47.59397, "longitude": 14.12456}
{"code": "aw", "name": "Aruba", "geocoded_name": "Aruba, Nederland", "latitude": 12.51756625, "longitude": -69.98186415210564}
{"code": "ay", "name": "Antarctica", "geocoded_name": "Antarctica", "latitude": -79.4063075, "longitude": 0.3149312}
{"code": "azu", "name": "Arizona", "geocoded_name": "Arizona, United States", "latitude": 34.395342, "longitude": -111.763275}
{"code": "ba", "name": "Bahrain", "geocoded_name": "\u0627\u0644\u0628\u062d\u0631\u064a\u0646", "latitude": 26.1551249, "longitude": 50.5344606}
{"code": "bb", "name": "Barbados", "geocoded_name": "Barbados", "latitude": 13.1500331, "longitude": -59.5250305}
{"code": "bcc", "name": "British Columbia", "geocoded_name": "British Columbia, Canada", "latitude": 55.001251, "longitude": -125.002441}
{"code": "bd", "name": "Burundi", "geocoded_name": "Burundi", "latitude": -3.426449, "longitude": 29.9324519}
{"code": "be", "name": "Belgium", "geocoded_name": "Belgi\u00eb / Belgique / Belgien", "latitude": 50.6402809, "longitude": 4.6667145}
{"code": "bf", "name": "Bahamas", "geocoded_name": "The Bahamas", "latitude": 24.7736546, "longitude": -78.0000547}
{"code": "bg", "name": "Bangladesh", "geocoded_name": "\u09ac\u09be\u0982\u09b2\u09be\u09a6\u09c7\u09b6", "latitude": 24.4769288, "longitude": 90.2934413}
{"code": "bh", "name": "Belize", "geocoded_name": "Belize", "latitude": 16.8259793, "longitude": -88.7600927}
{"code": "bi", "name": "British Indian Ocean Territory", "geocoded_name": "British Indian Ocean Territory", "latitude": -5.3497093499999995, "longitude": 71.86064227010121}
{"code": "bl", "name": "Brazil", "geocoded_name": "Brasil", "latitude": -10.3333333, "longitude": -53.2}
{"code": "bm", "name": "Bermuda Islands", "geocoded_name": "Bermuda Islands, MA 05, Bermuda", "latitude": 32.2860165, "longitude": -64.8493307}
{"code": "bn", "name": "Bosnia and Herzegovina", "geocoded_name": "Bosna i Hercegovina / \u0411\u043e\u0441\u043d\u0430 \u0438 \u0425\u0435\u0440\u0446\u0435\u0433\u043e\u0432\u0438\u043d\u0430", "latitude": 44.3053476, "longitude": 17.5961467}
{"code": "bo", "name": "Bolivia", "geocoded_name": "Bolivia", "latitude": -17.0568696, "longitude": -64.9912286}
{"code": "bp", "name": "Solomon Islands", "geocoded_name": "Solomon Islands", "latitude": -8.7053941, "longitude": 159.1070693851845}
{"code": "br", "name": "Burma", "geocoded_name": "\u1019\u103c\u1014\u103a\u1019\u102c", "latitude": 17.1750495, "longitude": 95.9999652}
{"code": "bs", "name": "Botswana", "geocoded_name": "Botswana", "latitude": -23.1681782, "longitude": 24.5928742}
{"code": "bt", "name": "Bhutan", "geocoded_name": "\u0f60\u0f56\u0fb2\u0f74\u0f42\u0f61\u0f74\u0f63\u0f0b", "latitude": 27.549511, "longitude": 90.5119273}
{"code": "bu", "name": "Bulgaria", "geocoded_name": "\u0411\u044a\u043b\u0433a\u0440\u0438\u044f", "latitude": 42.6073975, "longitude": 25.4856617}
{"code": "bv", "name": "Bouvet Island", "geocoded_name": "Bouvet\u00f8ya, Norge", "latitude": -54.4201305, "longitude": 3.3599732952297483}
{"code": "bw", "name": "Belarus", "geocoded_name": "\u0411\u0435\u043b\u0430\u0440\u0443\u0441\u044c", "latitude": 53.4250605, "longitude": 27.6971358}
{"code": "-bwr", "name": "Byelorussian S.S.R."}
{"code": "bx", "name": "Brunei", "geocoded_name": "Brunei", "latitude": 4.4137155, "longitude": 114.5653908}
{"code": "ca", "name": "Caribbean Netherlands", "geocoded_name": "Caribisch Nederland, Nederland", "latitude": 17.56187, "longitude": -63.138004249640304}
{"code": "cau", "name": "California", "geocoded_name": "California, United States", "latitude": 36.7014631, "longitude": -118.755997}
{"code": "cb", "name": "Cambodia", "geocoded_name": "\u1796\u17d2\u179a\u17c7\u179a\u17b6\u1787\u17b6\u178e\u17b6\u1785\u1780\u17d2\u179a\u200b\u1780\u1798\u17d2\u1796\u17bb\u1787\u17b6", "latitude": 12.5433216, "longitude": 104.8144914}
{"code": "cc", "name": "China", "geocoded_name": "\u4e2d\u56fd", "latitude": 35.000074, "longitude": 104.999927}
{"code": "cd", "name": "Chad", "geocoded_name": "Tchad \u062a\u0634\u0627\u062f", "latitude": 15.6134137, "longitude": 19.0156172}
{"code": "ce", "name": "Sri Lanka", "geocoded_name": "\u0dc1\u0dca\u200d\u0dbb\u0dd3 \u0dbd\u0d82\u0d9a\u0dcf\u0dc0 \u0b87\u0bb2\u0b99\u0bcd\u0b95\u0bc8", "latitude": 7.5554942, "longitude": 80.7137847}
{"code": "cf", "name": "Congo (Brazzaville)", "geocoded_name": "Congo", "latitude": -0.7264327, "longitude": 15.6419155}
{"code": "cg", "name": "Congo (Democratic Republic)", "geocoded_name": "R\u00e9publique d\u00e9mocratique du Congo", "latitude": -2.9814344, "longitude": 23.8222636}
{"code": "ch", "name": "China (Republic : 1949- )", "geocoded_name": "\u4e2d\u56fd\u4e0e\u4fc4\u7f57\u65af\u8fb9\u754c, \u0414\u0436\u0430\u0437\u0430\u0442\u043e\u0440\u0441\u043a\u043e\u0435 \u0441\u0435\u043b\u044c\u0441\u043a\u043e\u0435 \u043f\u043e\u0441\u0435\u043b\u0435\u043d\u0438\u0435, \u041a\u043e\u0448-\u0410\u0433\u0430\u0447\u0441\u043a\u0438\u0439 \u0440\u0430\u0439\u043e\u043d, \u0420\u0435\u0441\u043f\u0443\u0431\u043b\u0438\u043a\u0430 \u0410\u043b\u0442\u0430\u0439, \u0421\u0438\u0431\u0438\u0440\u0441\u043a\u0438\u0439 \u0444\u0435\u0434\u0435\u0440\u0430\u043b\u044c\u043d\u044b\u0439 \u043e\u043a\u0440\u0443\u0433, \u0420\u043e\u0441\u0441\u0438\u044f", "latitude": 49.1089107, "longitude": 87.2995948}
{"code": "ci", "name": "Croatia", "geocoded_name": "Hrvatska", "latitude": 45.5643442, "longitude": 17.0118954}
{"code": "cj", "name": "Cayman Islands", "geocoded_name": "Cayman Islands", "latitude": 19.703182249999998, "longitude": -79.9174627243246}
{"code": "ck", "name": "Colombia", "geocoded_name": "Colombia", "latitude": 4.099917, "longitude": -72.9088133}
{"code": "cl", "name": "Chile", "geocoded_name": "Chile", "latitude": -31.7613365, "longitude": -71.3187697}
{"code": "cm", "name": "Cameroon", "geocoded_name": "Cameroun", "latitude": 4.6125522, "longitude": 13.1535811}
{"code": "-cn", "name": "Canada", "geocoded_name": "Canada", "latitude": 61.0666922, "longitude": -107.991707}
{"code": "co", "name": "Cura\u00e7ao", "geocoded_name": "Cura\u00e7ao, Nederland", "latitude": 12.21339425, "longitude": -69.0408499890865}
{"code": "cou", "name": "Colorado", "geocoded_name": "Colorado, United States", "latitude": 38.7251776, "longitude": -105.607716}
{"code": "-cp", "name": "Canton and Enderbury Islands"}
{"code": "cq", "name": "Comoros", "geocoded_name": "Comores Komori \u062c\u0632\u0631 \u0627\u0644\u0642\u0645\u0631", "latitude": -12.2045176, "longitude": 44.2832964}
{"code": "cr", "name": "Costa Rica", "geocoded_name": "Costa Rica", "latitude": 10.2735633, "longitude": -84.0739102}
{"code": "-cs", "name": "Czechoslovakia", "geocoded_name": "Czechoslovakia, Don Bosco, Para\u00f1aque, Southern Manila District, Metro Manila, 1711, Philippines", "latitude": 14.480176, "longitude": 121.0392436}
{"code": "ctu", "name": "Connecticut", "geocoded_name": "Connecticut, United States", "latitude": 41.6500201, "longitude": -72.7342163}
{"code": "cu", "name": "Cuba", "geocoded_name": "Cuba", "latitude": 23.0131338, "longitude": -80.8328748}
{"code": "cv", "name": "Cabo Verde", "geocoded_name": "Cabo Verde", "latitude": 16.0000552, "longitude": -24.0083947}
{"code": "cw", "name": "Cook Islands", "geocoded_name": "K\u016bki '\u0100irani", "latitude": -19.919672900000002, "longitude": -157.9753368892878}
{"code": "cx", "name": "Central African Republic", "geocoded_name": "K\u00f6d\u00f6r\u00f6s\u00ease t\u00ee B\u00eaafr\u00eeka - R\u00e9publique Centrafricaine", "latitude": 7.0323598, "longitude": 19.9981227}
{"code": "cy", "name": "Cyprus", "geocoded_name": "\u039a\u03cd\u03c0\u03c1\u03bf\u03c2 - K\u0131br\u0131s", "latitude": 34.9823018, "longitude": 33.1451285}
{"code": "-cz", "name": "Canal Zone", "geocoded_name": "Canal Zone, Pudahuel, Provincia de Santiago, Regi\u00f3n Metropolitana de Santiago, 9020078, Chile", "latitude": -33.4313435, "longitude": -70.7441668}
{"code": "dcu", "name": "District of Columbia", "geocoded_name": "District of Columbia, United States", "latitude": 38.89384735, "longitude": -76.98804281910948}
{"code": "deu", "name": "Delaware", "geocoded_name": "Delaware, United States", "latitude": 38.6920451, "longitude": -75.4013315}
{"code": "dk", "name": "Denmark", "geocoded_name": "Danmark", "latitude": 55.670249, "longitude": 10.3333283}
{"code": "dm", "name": "Benin", "geocoded_name": "B\u00e9nin", "latitude": 9.5293472, "longitude": 2.2584408}
{"code": "dq", "name": "Dominica", "geocoded_name": "Rep\u00fablica Dominicana", "latitude": 19.0974031, "longitude": -70.3028026}
{"code": "dr", "name": "Dominican Republic", "geocoded_name": "Rep\u00fablica Dominicana", "latitude": 19.0974031, "longitude": -70.3028026}
{"code": "ea", "name": "Eritrea", "geocoded_name": "\u12a4\u122d\u1275\u122b Eritrea \u0625\u0631\u062a\u0631\u064a\u0627", "latitude": 15.9500319, "longitude": 37.9999668}
{"code": "ec", "name": "Ecuador", "geocoded_name": "Ecuador", "latitude": -1.3397668, "longitude": -79.3666965}
{"code": "eg", "name": "Equatorial Guinea", "geocoded_name": "Guinea Ecuatorial", "latitude": 1.613172, "longitude": 10.5170357}
{"code": "em", "name": "Timor-Leste", "geocoded_name": "Tim\u00f3r Lorosa'e / Timor-Leste", "latitude": -8.5151979, "longitude": 125.8375756}
{"code": "enk", "name": "England", "geocoded_name": "England, United Kingdom", "latitude": 52.5310214, "longitude": -1.2649062}
{"code": "er", "name": "Estonia", "geocoded_name": "Eesti", "latitude": 58.7523778, "longitude": 25.3319078}
{"code": "-err", "name": "Estonia", "geocoded_name": "Eesti", "latitude": 58.7523778, "longitude": 25.3319078}
{"code": "es", "name": "El Salvador", "geocoded_name": "El Salvador", "latitude": 13.8000382, "longitude": -88.9140683}
{"code": "et", "name": "Ethiopia", "geocoded_name": "\u12a2\u1275\u12ee\u1335\u12eb", "latitude": 10.2116702, "longitude": 38.6521203}
{"code": "fa", "name": "Faroe Islands", "geocoded_name": "F\u00f8royar", "latitude": 62.0448724, "longitude": -7.0322972}
{"code": "fg", "name": "French Guiana", "geocoded_name": "Guyane, France", "latitude": 4.0039882, "longitude": -52.999998}
{"code": "fi", "name": "Finland", "geocoded_name": "Suomi / Finland", "latitude": 63.2467777, "longitude": 25.9209164}
{"code": "fj", "name": "Fiji", "geocoded_name": "Viti", "latitude": -18.1239696, "longitude": 179.0122737}
{"code": "fk", "name": "Falkland Islands", "geocoded_name": "Falkland Islands", "latitude": -51.9492937, "longitude": -59.5383657}
{"code": "flu", "name": "Florida", "geocoded_name": "Florida, United States", "latitude": 27.7567667, "longitude": -81.4639835}
{"code": "fm", "name": "Micronesia (Federated States)", "geocoded_name": "Micronesia", "latitude": 8.6062347, "longitude": 151.832744331612}
{"code": "fp", "name": "French Polynesia", "geocoded_name": "Polyn\u00e9sie Fran\u00e7aise, France", "latitude": -17.0243749, "longitude": -144.6434898}
{"code": "fr", "name": "France", "geocoded_name": "France", "latitude": 46.603354, "longitude": 1.8883335}
{"code": "fs", "name": "Terres australes et antarctiques fran\u00e7aises", "geocoded_name": "Terres australes et antarctiques fran\u00e7aises, France", "latitude": -49.237441950000004, "longitude": 69.62275903679347}
{"code": "ft", "name": "Djibouti", "geocoded_name": "Djibouti \u062c\u064a\u0628\u0648\u062a\u064a", "latitude": 11.8145966, "longitude": 42.8453061}
{"code": "gau", "name": "Georgia", "geocoded_name": "Georgia, United States", "latitude": 32.3293809, "longitude": -83.1137366}
{"code": "gb", "name": "Kiribati", "geocoded_name": "Kiribati", "latitude": 0.3448612, "longitude": 173.6641773}
{"code": "gd", "name": "Grenada", "geocoded_name": "Grenada", "latitude": 12.1360374, "longitude": -61.6904045}
{"code": "-ge", "name": "Germany (East)", "geocoded_name": "Iron Ore Miner from the Siegerland, Germany, 1000, North Broadway Street, East Town, Milwaukee, Wisconsin, 53202, United States", "latitude": 43.0439394, "longitude": -87.9081981}
{"code": "gg", "name": "Guernsey", "geocoded_name": "Guernsey", "latitude": 49.4566233, "longitude": -2.5822348}
{"code": "gh", "name": "Ghana", "geocoded_name": "Ghana", "latitude": 8.0300284, "longitude": -1.0800271}
{"code": "gi", "name": "Gibraltar", "geocoded_name": "Gibraltar", "latitude": 36.1285933, "longitude": -5.3474761}
{"code": "gl", "name": "Greenland", "geocoded_name": "Kalaallit Nunaat", "latitude": 77.6192349, "longitude": -42.8125967}
{"code": "gm", "name": "Gambia", "geocoded_name": "Gambia", "latitude": 13.470062, "longitude": -15.4900464}
{"code": "-gn", "name": "Gilbert and Ellice Islands"}
{"code": "go", "name": "Gabon", "geocoded_name": "Gabon", "latitude": -0.8999695, "longitude": 11.6899699}
{"code": "gp", "name": "Guadeloupe", "geocoded_name": "Guadeloupe, France", "latitude": 16.2528827, "longitude": -61.5686855}
{"code": "gr", "name": "Greece", "geocoded_name": "\u0395\u03bb\u03bb\u03ac\u03c2", "latitude": 38.9953683, "longitude": 21.9877132}
{"code": "gs", "name": "Georgia (Republic)", "geocoded_name": "Georgia, Konstandias, \u039a\u03ac\u03c4\u03c9 \u03a0\u03ac\u03c6\u03bf\u03c2, \u0394\u03ae\u03bc\u03bf\u03c2 \u03a0\u03ac\u03c6\u03bf\u03c5, \u03a0\u03ac\u03c6\u03bf\u03c2, \u039d\u03cc\u03c4\u03b9\u03b1 \u039a\u03cd\u03c0\u03c1\u03bf\u03c2, 8041, \u039a\u03cd\u03c0\u03c1\u03bf\u03c2 - K\u0131br\u0131s", "latitude": 34.7587417, "longitude": 32.4169891}
{"code": "-gsr", "name": "Georgian S.S.R.", "geocoded_name": "Georgian Swamp, New Shoreham, South County, Rhode Island, United States", "latitude": 41.1987793, "longitude": -71.56799147015221}
{"code": "gt", "name": "Guatemala", "geocoded_name": "Guatemala", "latitude": 15.5855545, "longitude": -90.345759}
{"code": "gu", "name": "Guam", "geocoded_name": "Guam, Chalan Pago-Ordot Municipality, Guam, United States", "latitude": 13.450125700000001, "longitude": 144.75755102972062}
{"code": "gv", "name": "Guinea", "geocoded_name": "Guin\u00e9e", "latitude": 10.7226226, "longitude": -10.7083587}
{"code": "gw", "name": "Germany", "geocoded_name": "Deutschland", "latitude": 51.1638175, "longitude": 10.4478313}
{"code": "gy", "name": "Guyana", "geocoded_name": "Guyana", "latitude": 4.8417097, "longitude": -58.6416891}
{"code": "gz", "name": "Gaza Strip", "geocoded_name": "\u0642\u0637\u0627\u0639 \u063a\u0632\u0629, Palestinian Territory", "latitude": 31.4432234, "longitude": 34.360007}
{"code": "hiu", "name": "Hawaii", "geocoded_name": "Hawaii, United States", "latitude": 19.593801499999998, "longitude": -155.42837009716908}
{"code": "-hk", "name": "Hong Kong", "geocoded_name": "\u9999\u6e2f\u5cf6 Hong Kong Island, \u9999\u6e2f Hong Kong, \u4e2d\u56fd", "latitude": 22.2793278, "longitude": 114.1628131}
{"code": "hm", "name": "Heard and McDonald Islands", "geocoded_name": "McDonald Islands, Heard Island and McDonald Islands, Australia", "latitude": -53.0398547, "longitude": 72.59604724327433}
{"code": "ho", "name": "Honduras", "geocoded_name": "Honduras", "latitude": 15.2572432, "longitude": -86.0755145}
{"code": "ht", "name": "Haiti", "geocoded_name": "Ayiti", "latitude": 19.1399952, "longitude": -72.3570972}
{"code": "hu", "name": "Hungary", "geocoded_name": "Magyarorsz\u00e1g", "latitude": 47.1817585, "longitude": 19.5060937}
{"code": "iau", "name": "Iowa", "geocoded_name": "Iowa, United States", "latitude": 41.9216734, "longitude": -93.3122705}
{"code": "ic", "name": "Iceland", "geocoded_name": "\u00cdsland", "latitude": 64.9841821, "longitude": -18.1059013}
{"code": "idu", "name": "Idaho", "geocoded_name": "Idaho, United States", "latitude": 43.6447642, "longitude": -114.015407}
{"code": "ie", "name": "Ireland", "geocoded_name": "\u00c9ire / Ireland", "latitude": 52.865196, "longitude": -7.9794599}
{"code": "ii", "name": "India", "geocoded_name": "India", "latitude": 22.3511148, "longitude": 78.6677428}
{"code": "ilu", "name": "Illinois", "geocoded_name": "Illinois, United States", "latitude": 40.0796606, "longitude": -89.4337288}
{"code": "im", "name": "Isle of Man", "geocoded_name": "Isle of Man", "latitude": 54.1936805, "longitude": -4.5591148}
{"code": "inu", "name": "Indiana", "geocoded_name": "Indiana, United States", "latitude": 40.3270127, "longitude": -86.1746933}
{"code": "io", "name": "Indonesia", "geocoded_name": "Indonesia", "latitude": -2.4833826, "longitude": 117.8902853}
{"code": "iq", "name": "Iraq", "geocoded_name": "\u0627\u0644\u0639\u0631\u0627\u0642", "latitude": 33.0955793, "longitude": 44.1749775}
{"code": "ir", "name": "Iran", "geocoded_name": "\u0627\u06cc\u0631\u0627\u0646", "latitude": 32.6475314, "longitude": 54.5643516}
{"code": "is", "name": "Israel", "geocoded_name": "\u05d9\u05e9\u05e8\u05d0\u05dc", "latitude": 30.8124247, "longitude": 34.8594762}
{"code": "it", "name": "Italy", "geocoded_name": "Italia", "latitude": 42.6384261, "longitude": 12.674297}
{"code": "-iu", "name": "Israel-Syria Demilitarized Zones"}
{"code": "iv", "name": "C\u00f4te d'Ivoire", "geocoded_name": "C\u00f4te d\u2019Ivoire", "latitude": 7.9897371, "longitude": -5.5679458}
{"code": "-iw", "name": "Israel-Jordan Demilitarized Zones"}
{"code": "iy", "name": "Iraq-Saudi Arabia Neutral Zone"}
{"code": "ja", "name": "Japan", "geocoded_name": "\u65e5\u672c", "latitude": 36.5748441, "longitude": 139.2394179}
{"code": "je", "name": "Jersey", "geocoded_name": "Jersey", "latitude": 49.2214561, "longitude": -2.1358386}
{"code": "ji", "name": "Johnston Atoll", "geocoded_name": "Johnston Atoll, United States", "latitude": 16.752446149999997, "longitude": -169.51070155661202}
{"code": "jm", "name": "Jamaica", "geocoded_name": "Jamaica", "latitude": 18.1850507, "longitude": -77.3947693}
{"code": "-jn", "name": "Jan Mayen", "geocoded_name": "Jan Mayen, Norge", "latitude": 70.99341765, "longitude": -8.350019623637058}
{"code": "jo", "name": "Jordan", "geocoded_name": "\u0627\u0644\u0623\u0631\u062f\u0646", "latitude": 31.1667049, "longitude": 36.941628}
{"code": "ke", "name": "Kenya", "geocoded_name": "Kenya", "latitude": 1.4419683, "longitude": 38.4313975}
{"code": "kg", "name": "Kyrgyzstan", "geocoded_name": "\u041a\u044b\u0440\u0433\u044b\u0437\u0441\u0442\u0430\u043d", "latitude": 41.5089324, "longitude": 74.724091}
{"code": "-kgr", "name": "Kirghiz S.S.R."}
{"code": "kn", "name": "Korea (North)", "geocoded_name": "\uc870\uc120\ubbfc\uc8fc\uc8fc\uc758\uc778\ubbfc\uacf5\ud654\uad6d", "latitude": 40.3736611, "longitude": 127.0870417}
{"code": "ko", "name": "Korea (South)", "geocoded_name": "\ub300\ud55c\ubbfc\uad6d", "latitude": 36.638392, "longitude": 127.6961188}
{"code": "ksu", "name": "Kansas", "geocoded_name": "Kansas, United States", "latitude": 38.27312, "longitude": -98.5821872}
{"code": "ku", "name": "Kuwait", "geocoded_name": "\u0627\u0644\u0643\u0648\u064a\u062a", "latitude": 29.2733964, "longitude": 47.4979476}
{"code": "kv", "name": "Kosovo", "geocoded_name": "Kosova / Kosovo", "latitude": 42.5869578, "longitude": 20.9021231}
{"code": "kyu", "name": "Kentucky", "geocoded_name": "Kentucky, United States", "latitude": 37.5726028, "longitude": -85.1551411}
{"code": "kz", "name": "Kazakhstan", "geocoded_name": "\u049a\u0430\u0437\u0430\u049b\u0441\u0442\u0430\u043d", "latitude": 48.1012954, "longitude": 66.7780818}
{"code": "-kzr", "name": "Kazakh S.S.R.", "geocoded_name": "\u963f\u514b\u585e\u53bf, \u7ea2\u67f3\u6e7e\u9547, \u963f\u514b\u585e\u54c8\u8428\u514b\u65cf\u81ea\u6cbb\u53bf, \u9152\u6cc9\u5e02, \u7518\u8083\u7701, 736400, \u4e2d\u56fd", "latitude": 39.6329128, "longitude": 94.3389448}
{"code": "lau", "name": "Louisiana", "geocoded_name": "Louisiana, United States", "latitude": 30.8703881, "longitude": -92.007126}
{"code": "lb", "name": "Liberia", "geocoded_name": "Liberia", "latitude": 5.7499721, "longitude": -9.3658524}
{"code": "le", "name": "Lebanon", "geocoded_name": "\u0644\u0628\u0646\u0627\u0646", "latitude": 33.8750629, "longitude": 35.843409}
{"code": "lh", "name": "Liechtenstein", "geocoded_name": "Liechtenstein", "latitude": 47.1416307, "longitude": 9.5531527}
{"code": "li", "name": "Lithuania", "geocoded_name": "Lietuva", "latitude": 55.3500003, "longitude": 23.7499997}
{"code": "-lir", "name": "Lithuania", "geocoded_name": "Lietuva", "latitude": 55.3500003, "longitude": 23.7499997}
{"code": "-ln", "name": "Central and Southern Line Islands"}
{"code": "lo", "name": "Lesotho", "geocoded_name": "Lesotho", "latitude": -29.6039267, "longitude": 28.3350193}
{"code": "ls", "name": "Laos", "geocoded_name": "\u0e9b\u0eb0\u0ec0\u0e97\u0e94\u0ea5\u0eb2\u0ea7", "latitude": 20.0171109, "longitude": 103.378253}
{"code": "lu", "name": "Luxembourg", "geocoded_name": "L\u00ebtzebuerg", "latitude": 49.8158683, "longitude": 6.1296751}
{"code": "lv", "name": "Latvia", "geocoded_name": "Latvija", "latitude": 56.8406494, "longitude": 24.7537645}
{"code": "-lvr", "name": "Latvia", "geocoded_name": "Latvija", "latitude": 56.8406494, "longitude": 24.7537645}
{"code": "ly", "name": "Libya", "geocoded_name": "\u0644\u064a\u0628\u064a\u0627", "latitude": 26.8234472, "longitude": 18.1236723}
{"code": "mau", "name": "Massachusetts", "geocoded_name": "Massachusetts, United States", "latitude": 42.3788774, "longitude": -72.032366}
{"code": "mbc", "name": "Manitoba", "geocoded_name": "Manitoba, Canada", "latitude": 55.001251, "longitude": -97.001038}
{"code": "mc", "name": "Monaco", "geocoded_name": "Monaco", "latitude": 43.7323492, "longitude": 7.4276832}
{"code": "mdu", "name": "Maryland", "geocoded_name": "Maryland, United States", "latitude": 39.5162401, "longitude": -76.9382069}
{"code": "meu", "name": "Maine", "geocoded_name": "Maine, United States", "latitude": 45.709097, "longitude": -68.8590201}
{"code": "mf", "name": "Mauritius", "geocoded_name": "Mauritius", "latitude": -20.2759451, "longitude": 57.5703566}
{"code": "mg", "name": "Madagascar", "geocoded_name": "Madagasikara / Madagascar", "latitude": -18.9249604, "longitude": 46.4416422}
{"code": "-mh", "name": "Macao", "geocoded_name": "\u6fb3\u9580 Macau, \u4e2d\u56fd", "latitude": 22.1899448, "longitude": 113.5380454}
{"code": "miu", "name": "Michigan", "geocoded_name": "Michigan, United States", "latitude": 43.6211955, "longitude": -84.6824346}
{"code": "mj", "name": "Montserrat", "geocoded_name": "Montserrat", "latitude": 16.7417041, "longitude": -62.1916844}
{"code": "mk", "name": "Oman", "geocoded_name": "\u0639\u0645\u0627\u0646", "latitude": 21.0000287, "longitude": 57.0036901}
{"code": "ml", "name": "Mali", "geocoded_name": "Mali", "latitude": 16.3700359, "longitude": -2.2900239}
{"code": "mm", "name": "Malta", "geocoded_name": "Malta", "latitude": 35.8885993, "longitude": 14.4476911}
{"code": "mnu", "name": "Minnesota", "geocoded_name": "Minnesota, United States", "latitude": 45.9896587, "longitude": -94.6113288}
{"code": "mo", "name": "Montenegro", "geocoded_name": "Crna Gora / \u0426\u0440\u043d\u0430 \u0413\u043e\u0440\u0430", "latitude": 42.9868853, "longitude": 19.5180992}
{"code": "mou", "name": "Missouri", "geocoded_name": "Missouri, United States", "latitude": 38.7604815, "longitude": -92.5617875}
{"code": "mp", "name": "Mongolia", "geocoded_name": "\u041c\u043e\u043d\u0433\u043e\u043b \u0443\u043b\u0441 \u182e\u1824\u1829\u182d\u1824\u182f \u1824\u182f\u1824\u1830", "latitude": 46.8250388, "longitude": 103.8499736}
{"code": "mq", "name": "Martinique", "geocoded_name": "Martinique, France", "latitude": 14.6367927, "longitude": -61.01582685063731}
{"code": "mr", "name": "Morocco", "geocoded_name": "Maroc / \u2d4d\u2d4e\u2d56\u2d54\u2d49\u2d31 / \u0627\u0644\u0645\u063a\u0631\u0628", "latitude": 31.1728205, "longitude": -7.3362482}
{"code": "msu", "name": "Mississippi", "geocoded_name": "Mississippi, United States", "latitude": 32.9715285, "longitude": -89.7348497}
{"code": "mtu", "name": "Montana", "geocoded_name": "Montana, United States", "latitude": 47.3752671, "longitude": -109.638757}
{"code": "mu", "name": "Mauritania", "geocoded_name": "\u0645\u0648\u0631\u064a\u062a\u0627\u0646\u064a\u0627", "latitude": 20.2540382, "longitude": -9.2399263}
{"code": "mv", "name": "Moldova", "geocoded_name": "Moldova", "latitude": 47.2879608, "longitude": 28.5670941}
{"code": "-mvr", "name": "Moldavian S.S.R."}
{"code": "mw", "name": "Malawi", "geocoded_name": "Malawi", "latitude": -13.2687204, "longitude": 33.9301963}
{"code": "mx", "name": "Mexico", "geocoded_name": "M\u00e9xico", "latitude": 23.6585116, "longitude": -102.0077097}
{"code": "my", "name": "Malaysia", "geocoded_name": "Malaysia", "latitude": 4.5693754, "longitude": 102.2656823}
{"code": "mz", "name": "Mozambique", "geocoded_name": "Mo\u00e7ambique", "latitude": -19.302233, "longitude": 34.9144977}
{"code": "-na", "name": "Netherlands Antilles", "geocoded_name": "Nederlandse Cariben, Cura\u00e7ao, Nederland", "latitude": 12.1845, "longitude": -68.6607922625}
{"code": "nbu", "name": "Nebraska", "geocoded_name": "Nebraska, United States", "latitude": 41.7370229, "longitude": -99.5873816}
{"code": "ncu", "name": "North Carolina", "geocoded_name": "North Carolina, United States", "latitude": 35.6729639, "longitude": -79.0392919}
{"code": "ndu", "name": "North Dakota", "geocoded_name": "North Dakota, United States", "latitude": 47.6201461, "longitude": -100.540737}
{"code": "ne", "name": "Netherlands", "geocoded_name": "Nederland", "latitude": 52.2434979, "longitude": 5.6343227}
{"code": "nfc", "name": "Newfoundland and Labrador", "geocoded_name": "Newfoundland and Labrador, Canada", "latitude": 53.8217327, "longitude": -61.2295532}
{"code": "ng", "name": "Niger", "geocoded_name": "Niger", "latitude": 17.7356214, "longitude": 9.3238432}
{"code": "nhu", "name": "New Hampshire", "geocoded_name": "New Hampshire, United States", "latitude": 43.4849133, "longitude": -71.6553992}
{"code": "nik", "name": "Northern Ireland", "geocoded_name": "Northern Ireland, United Kingdom", "latitude": 54.5859836, "longitude": -6.9591554}
{"code": "nju", "name": "New Jersey", "geocoded_name": "New Jersey, United States", "latitude": 40.0757384, "longitude": -74.4041622}
{"code": "nkc", "name": "New Brunswick", "geocoded_name": "New Brunswick / Nouveau-Brunswick, Canada", "latitude": 46.500283, "longitude": -66.750183}
{"code": "nl", "name": "New Caledonia", "geocoded_name": "Nouvelle-Cal\u00e9donie, France", "latitude": -21.3019905, "longitude": 165.4880773}
{"code": "-nm", "name": "Northern Mariana Islands", "geocoded_name": "Northern Mariana Islands, United States", "latitude": 15.1753648, "longitude": 145.7379338}
{"code": "nmu", "name": "New Mexico", "geocoded_name": "New Mexico, United States", "latitude": 34.5708167, "longitude": -105.993007}
{"code": "nn", "name": "Vanuatu", "geocoded_name": "Vanuatu", "latitude": -16.5255069, "longitude": 168.1069154}
{"code": "no", "name": "Norway", "geocoded_name": "Norge", "latitude": 60.5000209, "longitude": 9.0999715}
{"code": "np", "name": "Nepal", "geocoded_name": "\u0928\u0947\u092a\u093e\u0932", "latitude": 28.1083929, "longitude": 84.0917139}
{"code": "nq", "name": "Nicaragua", "geocoded_name": "Nicaragua", "latitude": 12.6090157, "longitude": -85.2936911}
{"code": "nr", "name": "Nigeria", "geocoded_name": "Nigeria", "latitude": 9.6000359, "longitude": 7.9999721}
{"code": "nsc", "name": "Nova Scotia", "geocoded_name": "Nova Scotia, Canada", "latitude": 45.1960403, "longitude": -63.1653789}
{"code": "ntc", "name": "Northwest Territories", "geocoded_name": "Northwest Territories, Canada", "latitude": 65.0000004, "longitude": -118.0}
{"code": "nu", "name": "Nauru", "geocoded_name": "Naoero", "latitude": -0.5252306, "longitude": 166.9324426}
{"code": "nuc", "name": "Nunavut", "geocoded_name": "\u14c4\u14c7\u1557\u1466 Nunavut, Canada", "latitude": 65.0377727, "longitude": -92.5540791}
{"code": "nvu", "name": "Nevada", "geocoded_name": "Nevada, United States", "latitude": 39.5158825, "longitude": -116.8537227}
{"code": "nw", "name": "Northern Mariana Islands", "geocoded_name": "Northern Mariana Islands, United States", "latitude": 15.1753648, "longitude": 145.7379338}
{"code": "nx", "name": "Norfolk Island", "geocoded_name": "Norfolk Island, Burnt Pine, Norfolk Island, 2899, Australia", "latitude": -29.0289575, "longitude": 167.9587289126371}
{"code": "nyu", "name": "New York (State)", "geocoded_name": "New York, United States", "latitude": 43.1561681, "longitude": -75.8449946}
{"code": "nz", "name": "New Zealand", "geocoded_name": "New Zealand / Aotearoa", "latitude": -41.5000831, "longitude": 172.8344077}
{"code": "ohu", "name": "Ohio", "geocoded_name": "Ohio, United States", "latitude": 40.2253569, "longitude": -82.6881395}
{"code": "oku", "name": "Oklahoma", "geocoded_name": "Oklahoma, United States", "latitude": 34.9550817, "longitude": -97.2684063}
{"code": "onc", "name": "Ontario", "geocoded_name": "Ontario, Canada", "latitude": 50.000678, "longitude": -86.000977}
{"code": "oru", "name": "Oregon", "geocoded_name": "Oregon, United States", "latitude": 43.9792797, "longitude": -120.737257}
{"code": "ot", "name": "Mayotte", "geocoded_name": "Mayotte, France", "latitude": -12.825543, "longitude": 45.148490830203045}
{"code": "pau", "name": "Pennsylvania", "geocoded_name": "Pennsylvania, United States", "latitude": 40.9699889, "longitude": -77.7278831}
{"code": "pc", "name": "Pitcairn Island", "geocoded_name": "Pitcairn, Pitcairn Islands", "latitude": -25.069632249999998, "longitude": -130.1060205676272}
{"code": "pe", "name": "Peru", "geocoded_name": "Per\u00fa", "latitude": -6.8699697, "longitude": -75.0458515}
{"code": "pf", "name": "Paracel Islands", "geocoded_name": "Randalls and Wards Islands, Manhattan, New York County, City of New York, New York, United States", "latitude": 40.79144785, "longitude": -73.92102371388103}
{"code": "pg", "name": "Guinea-Bissau", "geocoded_name": "Guin\u00e9-Bissau", "latitude": 12.100035, "longitude": -14.9000214}
{"code": "ph", "name": "Philippines", "geocoded_name": "Philippines", "latitude": 12.7503486, "longitude": 122.7312101}
{"code": "pic", "name": "Prince Edward Island", "geocoded_name": "Prince Edward Island, Canada", "latitude": 46.503680700000004, "longitude": -63.59541096896726}
{"code": "pk", "name": "Pakistan", "geocoded_name": "\u067e\u0627\u06a9\u0633\u062a\u0627\u0646", "latitude": 30.3308401, "longitude": 71.247499}
{"code": "pl", "name": "Poland", "geocoded_name": "Polska", "latitude": 52.215933, "longitude": 19.134422}
{"code": "pn", "name": "Panama", "geocoded_name": "Panam\u00e1", "latitude": 8.559559, "longitude": -81.1308434}
{"code": "po", "name": "Portugal", "geocoded_name": "Portugal", "latitude": 39.6621648, "longitude": -8.1353519}
{"code": "pp", "name": "Papua New Guinea", "geocoded_name": "Papua Niugini", "latitude": -5.6816069, "longitude": 144.2489081}
{"code": "pr", "name": "Puerto Rico", "geocoded_name": "Puerto Rico, United States", "latitude": 18.2247706, "longitude": -66.4858295}
{"code": "-pt", "name": "Portuguese Timor"}
{"code": "pw", "name": "Palau", "geocoded_name": "Belau", "latitude": 5.3783537, "longitude": 132.9102573}
{"code": "py", "name": "Paraguay", "geocoded_name": "Paraguay", "latitude": -23.3165935, "longitude": -58.1693445}
{"code": "qa", "name": "Qatar", "geocoded_name": "\u0642\u0637\u0631", "latitude": 25.3336984, "longitude": 51.2295295}
{"code": "qea", "name": "Queensland", "geocoded_name": "Queensland, Australia", "latitude": -22.1646782, "longitude": 144.5844903}
{"code": "quc", "name": "Qu\u00e9bec (Province)", "geocoded_name": "Quebec, 8, Calle de Am\u00f3s de Escalante, Cabildo de Arriba, Santander, Cantabria, 39002, Espa\u00f1a", "latitude": 43.4620332, "longitude": -3.8111778}
{"code": "rb", "name": "Serbia", "geocoded_name": "\u0421\u0440\u0431\u0438\u0458\u0430", "latitude": 44.1534121, "longitude": 20.55144}
{"code": "re", "name": "R\u00e9union", "geocoded_name": "La R\u00e9union, France", "latitude": -21.130737949999997, "longitude": 55.536480112992315}
{"code": "rh", "name": "Zimbabwe", "geocoded_name": "Zimbabwe", "latitude": -18.4554963, "longitude": 29.7468414}
{"code": "riu", "name": "Rhode Island", "geocoded_name": "Rhode Island, United States", "latitude": 41.7962409, "longitude": -71.5992372}
{"code": "rm", "name": "Romania", "geocoded_name": "Rom\u00e2nia", "latitude": 45.9852129, "longitude": 24.6859225}
{"code": "ru", "name": "Russia (Federation)"}
{"code": "-rur", "name": "Russian S.F.S.R.", "geocoded_name": "Russian Hill Place, Russian Hill-Macondray Lane Historic District, San Francisco, California, 94133, United States", "latitude": 37.7978003, "longitude": -122.4150897}
{"code": "rw", "name": "Rwanda", "geocoded_name": "Rwanda", "latitude": -1.9646631, "longitude": 30.0644358}
{"code": "-ry", "name": "Ryukyu Islands, Southern"}
{"code": "sa", "name": "South Africa", "geocoded_name": "South Africa", "latitude": -28.8166236, "longitude": 24.991639}
{"code": "-sb", "name": "Svalbard", "geocoded_name": "Svalbard, Norge", "latitude": 78.7198519, "longitude": 20.3493328}
{"code": "sc", "name": "Saint-Barth\u00e9lemy", "geocoded_name": "Saint-Barth\u00e9lemy, 97133, France", "latitude": 17.9036287, "longitude": -62.811568843006896}
{"code": "scu", "name": "South Carolina", "geocoded_name": "South Carolina, United States", "latitude": 33.6874388, "longitude": -80.4363743}
{"code": "sd", "name": "South Sudan", "geocoded_name": "South Sudan", "latitude": 7.8699431, "longitude": 29.6667897}
{"code": "sdu", "name": "South Dakota", "geocoded_name": "South Dakota, United States", "latitude": 44.6471761, "longitude": -100.348761}
{"code": "se", "name": "Seychelles", "geocoded_name": "Sesel", "latitude": -4.6574977, "longitude": 55.4540146}
{"code": "sf", "name": "Sao Tome and Principe", "geocoded_name": "S\u00e3o Tom\u00e9 e Pr\u00edncipe", "latitude": 0.9713095, "longitude": 7.02255}
{"code": "sg", "name": "Senegal", "geocoded_name": "S\u00e9n\u00e9gal", "latitude": 14.4750607, "longitude": -14.4529612}
{"code": "sh", "name": "Spanish North Africa"}
{"code": "si", "name": "Singapore", "geocoded_name": "Singapore", "latitude": 1.357107, "longitude": 103.8194992}
{"code": "sj", "name": "Sudan", "geocoded_name": "\u0627\u0644\u0633\u0648\u062f\u0627\u0646", "latitude": 14.5844444, "longitude": 29.4917691}
{"code": "-sk", "name": "Sikkim", "geocoded_name": "Sikkim, India", "latitude": 27.601029, "longitude": 88.45413638680145}
{"code": "sl", "name": "Sierra Leone", "geocoded_name": "Sierra Leone", "latitude": 8.6400349, "longitude": -11.8400269}
{"code": "sm", "name": "San Marino", "geocoded_name": "San Marino", "latitude": 43.9458623, "longitude": 12.458306}
{"code": "sn", "name": "Sint Maarten", "geocoded_name": "Sint Maarten, Nederland", "latitude": 18.0423736, "longitude": -63.0549948}
{"code": "snc", "name": "Saskatchewan", "geocoded_name": "Saskatchewan, Canada", "latitude": 55.5321257, "longitude": -106.1412243}
{"code": "so", "name": "Somalia", "geocoded_name": "Soomaaliya \u0627\u0644\u0635\u0648\u0645\u0627\u0644", "latitude": 8.3676771, "longitude": 49.083416}
{"code": "sp", "name": "Spain", "geocoded_name": "Espa\u00f1a", "latitude": 39.3260685, "longitude": -4.8379791}
{"code": "sq", "name": "Eswatini", "geocoded_name": "eSwatini", "latitude": -26.5624806, "longitude": 31.3991317}
{"code": "sr", "name": "Surinam", "geocoded_name": "Suriname", "latitude": 4.1413025, "longitude": -56.0771187}
{"code": "ss", "name": "Western Sahara", "geocoded_name": "\u0627\u0644\u0635\u062d\u0631\u0627\u0621 \u0627\u0644\u063a\u0631\u0628\u064a\u0629, Maroc / \u2d4d\u2d4e\u2d56\u2d54\u2d49\u2d31 / \u0627\u0644\u0645\u063a\u0631\u0628", "latitude": 24.16819605, "longitude": -13.892143025000001}
{"code": "st", "name": "Saint-Martin", "geocoded_name": "Saint-Martin (France), 97150, France", "latitude": 18.0814066, "longitude": -63.0467131}
{"code": "stk", "name": "Scotland", "geocoded_name": "Alba / Scotland, United Kingdom", "latitude": 56.7861112, "longitude": -4.1140518}
{"code": "su", "name": "Saudi Arabia", "geocoded_name": "\u0627\u0644\u0633\u0639\u0648\u062f\u064a\u0629", "latitude": 25.6242618, "longitude": 42.3528328}
{"code": "-sv", "name": "Swan Islands", "geocoded_name": "Swan Islands, Area E (Moresby Island), North Coast Regional District, British Columbia, Canada", "latitude": 52.3349769, "longitude": -131.29781964448307}
{"code": "sw", "name": "Sweden", "geocoded_name": "Sverige", "latitude": 59.6749712, "longitude": 14.5208584}
{"code": "sx", "name": "Namibia", "geocoded_name": "Namibia", "latitude": -23.2335499, "longitude": 17.3231107}
{"code": "sy", "name": "Syria", "geocoded_name": "\u0633\u0648\u0631\u064a\u0627", "latitude": 34.6401861, "longitude": 39.0494106}
{"code": "sz", "name": "Switzerland", "geocoded_name": "Schweiz/Suisse/Svizzera/Svizra", "latitude": 46.7985624, "longitude": 8.2319736}
{"code": "ta", "name": "Tajikistan", "geocoded_name": "\u0422\u043e\u04b7\u0438\u043a\u0438\u0441\u0442\u043e\u043d", "latitude": 38.6281733, "longitude": 70.8156541}
{"code": "-tar", "name": "Tajik S.S.R.", "geocoded_name": "Tajik Street, \u0646\u0634\u062a\u0631 \u0622\u0628\u0627\u062f, \u067e\u0634\u0627\u0648\u0631\u200e, \u062e\u06cc\u0628\u0631 \u067e\u069a\u062a\u0648\u0646\u062e\u0648\u0627, 25210, \u067e\u0627\u06a9\u0633\u062a\u0627\u0646", "latitude": 34.0134161, "longitude": 71.5997781}
{"code": "tc", "name": "Turks and Caicos Islands", "geocoded_name": "Turks and Caicos Islands", "latitude": 21.721746, "longitude": -71.5527809}
{"code": "tg", "name": "Togo", "geocoded_name": "Togo", "latitude": 8.7800265, "longitude": 1.0199765}
{"code": "th", "name": "Thailand", "geocoded_name": "\u0e1b\u0e23\u0e30\u0e40\u0e17\u0e28\u0e44\u0e17\u0e22", "latitude": 14.8971921, "longitude": 100.83273}
{"code": "ti", "name": "Tunisia", "geocoded_name": "\u062a\u0648\u0646\u0633", "latitude": 33.8439408, "longitude": 9.400138}
{"code": "tk", "name": "Turkmenistan", "geocoded_name": "T\u00fcrkmenistan", "latitude": 39.3763807, "longitude": 59.3924609}
{"code": "-tkr", "name": "Turkmen S.S.R.", "geocoded_name": "Oguzhan T\u00fcrkmen k\u00f6\u00e7esi, Bagty\u00fdarlyk, Bagty\u00fdarlyk etraby, A\u015fgabat, 744010, T\u00fcrkmenistan", "latitude": 38.0061525, "longitude": 58.3032715}
{"code": "tl", "name": "Tokelau", "geocoded_name": "Tokelau", "latitude": -9.1676396, "longitude": -171.819687}
{"code": "tma", "name": "Tasmania", "geocoded_name": "Tasmania, Australia", "latitude": -42.035067, "longitude": 146.6366887}
{"code": "tnu", "name": "Tennessee", "geocoded_name": "Tennessee, United States", "latitude": 35.7730076, "longitude": -86.2820081}
{"code": "to", "name": "Tonga", "geocoded_name": "Tonga", "latitude": -19.9160819, "longitude": -175.202642}
{"code": "tr", "name": "Trinidad and Tobago", "geocoded_name": "Trinidad and Tobago", "latitude": 10.7466905, "longitude": -61.0840075}
{"code": "ts", "name": "United Arab Emirates", "geocoded_name": "\u0627\u0644\u0625\u0645\u0627\u0631\u0627\u062a \u0627\u0644\u0639\u0631\u0628\u064a\u0629 \u0627\u0644\u0645\u062a\u062d\u062f\u0629", "latitude": 24.0002488, "longitude": 53.9994829}
{"code": "-tt", "name": "Trust Territory of the Pacific Islands"}
{"code": "tu", "name": "Turkey", "geocoded_name": "T\u00fcrkiye", "latitude": 38.9597594, "longitude": 34.9249653}
{"code": "tv", "name": "Tuvalu", "geocoded_name": "Tuvalu", "latitude": -8.6405212, "longitude": 179.1582918181797}
{"code": "txu", "name": "Texas", "geocoded_name": "Texas, United States", "latitude": 31.2638905, "longitude": -98.5456116}
{"code": "tz", "name": "Tanzania", "geocoded_name": "Tanzania", "latitude": -6.5247123, "longitude": 35.7878438}
{"code": "ua", "name": "Egypt", "geocoded_name": "\u0645\u0635\u0631", "latitude": 26.2540493, "longitude": 29.2675469}
{"code": "uc", "name": "United States Misc. Caribbean Islands"}
{"code": "ug", "name": "Uganda", "geocoded_name": "Uganda", "latitude": 1.5333554, "longitude": 32.2166578}
{"code": "-ui", "name": "United Kingdom Misc. Islands"}
{"code": "-uik", "name": "United Kingdom Misc. Islands"}
{"code": "-uk", "name": "United Kingdom", "geocoded_name": "United Kingdom", "latitude": 54.7023545, "longitude": -3.2765753}
{"code": "un", "name": "Ukraine", "geocoded_name": "\u0423\u043a\u0440\u0430\u0457\u043d\u0430", "latitude": 49.4871968, "longitude": 31.2718321}
{"code": "-unr", "name": "Ukraine", "geocoded_name": "\u0423\u043a\u0440\u0430\u0457\u043d\u0430", "latitude": 49.4871968, "longitude": 31.2718321}
{"code": "up", "name": "United States Misc. Pacific Islands"}
{"code": "-ur", "name": "Soviet Union", "geocoded_name": "Soviet Union, Strada Lacului, Slobozia, Ialomi\u021ba, 920012, Rom\u00e2nia", "latitude": 44.566633350000004, "longitude": 27.359792969682104}
{"code": "-us", "name": "United States", "geocoded_name": "United States", "latitude": 39.7837304, "longitude": -100.445882}
{"code": "utu", "name": "Utah", "geocoded_name": "Utah, United States", "latitude": 39.4225192, "longitude": -111.714358}
{"code": "uv", "name": "Burkina Faso", "geocoded_name": "Burkina Faso", "latitude": 12.0753083, "longitude": -1.6880314}
{"code": "uy", "name": "Uruguay", "geocoded_name": "Uruguay", "latitude": -32.8755548, "longitude": -56.0201525}
{"code": "uz", "name": "Uzbekistan", "geocoded_name": "O\u02bbzbekiston", "latitude": 41.32373, "longitude": 63.9528098}
{"code": "-uzr", "name": "Uzbek S.S.R."}
{"code": "vau", "name": "Virginia", "geocoded_name": "Virginia, United States", "latitude": 37.1232245, "longitude": -78.4927721}
{"code": "vb", "name": "British Virgin Islands", "geocoded_name": "British Virgin Islands", "latitude": 18.4024395, "longitude": -64.5661642}
{"code": "vc", "name": "Vatican City", "geocoded_name": "Civitas Vaticana - Citt\u00e0 del Vaticano", "latitude": 41.903411, "longitude": 12.4528527}
{"code": "ve", "name": "Venezuela", "geocoded_name": "Venezuela", "latitude": 8.0018709, "longitude": -66.1109318}
{"code": "vi", "name": "Virgin Islands of the United States", "geocoded_name": "United States Virgin Islands, United States", "latitude": 17.789187, "longitude": -64.7080574}
{"code": "vm", "name": "Vietnam", "geocoded_name": "Vi\u1ec7t Nam", "latitude": 15.9266657, "longitude": 107.9650855}
{"code": "-vn", "name": "Vietnam, North", "geocoded_name": "Vietnam, 618-626, Broadway, North Beach, San Francisco, California, 94133, United States", "latitude": 37.7979399, "longitude": -122.4074504}
{"code": "vp", "name": "Various places", "geocoded_name": "Various cheap street food places, Jalan Pattimura, Legian, Kuta, Bali, 80612, Indonesia", "latitude": -8.7118108, "longitude": 115.1744468}
{"code": "vra", "name": "Victoria", "geocoded_name": "Victoria, Australia", "latitude": -36.5986096, "longitude": 144.6780052}
{"code": "-vs", "name": "Vietnam, South", "geocoded_name": "Vietnam, Mogo, Eurobodalla Shire Council, New South Wales, 2536, Australia", "latitude": -35.7778523, "longitude": 150.1870785}
{"code": "vtu", "name": "Vermont", "geocoded_name": "Vermont, United States", "latitude": 44.5990718, "longitude": -72.5002608}
{"code": "wau", "name": "Washington (State)", "geocoded_name": "Washington, United States", "latitude": 47.2868352, "longitude": -120.212613}
{"code": "-wb", "name": "West Berlin", "geocoded_name": "West Berlin, Region of Queens Municipality, Queens County, Nova Scotia, B0J 1H0, Canada", "latitude": 44.0742673, "longitude": -64.5827869}
{"code": "wea", "name": "Western Australia", "geocoded_name": "Western Australia, Australia", "latitude": -25.2303005, "longitude": 121.0187246}
{"code": "wf", "name": "Wallis and Futuna", "geocoded_name": "Wallis-et-Futuna, France", "latitude": -13.289402, "longitude": -176.204224}
{"code": "wiu", "name": "Wisconsin", "geocoded_name": "Wisconsin, United States", "latitude": 44.4308975, "longitude": -89.6884637}
{"code": "wj", "name": "West Bank of the Jordan River"}
{"code": "wk", "name": "Wake Island", "geocoded_name": "Wake Island, United States", "latitude": 19.28988935, "longitude": 166.64921739111432}
{"code": "wlk", "name": "Wales", "geocoded_name": "Cymru / Wales, United Kingdom", "latitude": 52.2928116, "longitude": -3.73893}
{"code": "ws", "name": "Samoa", "geocoded_name": "S\u0101moa", "latitude": -13.7693895, "longitude": -172.12005}
{"code": "wvu", "name": "West Virginia", "geocoded_name": "West Virginia, United States", "latitude": 38.4758406, "longitude": -80.8408415}
{"code": "wyu", "name": "Wyoming", "geocoded_name": "Wyoming, United States", "latitude": 43.1700264, "longitude": -107.568534}
{"code": "xa", "name": "Christmas Island (Indian Ocean)"}
{"code": "xb", "name": "Cocos (Keeling) Islands", "geocoded_name": "Cocos (Keeling) Islands, Australia", "latitude": -12.0728315, "longitude": 96.8409375}
{"code": "xc", "name": "Maldives", "geocoded_name": "\u078b\u07a8\u0788\u07ac\u0780\u07a8\u0783\u07a7\u0787\u07b0\u0796\u07ac", "latitude": 3.7203503, "longitude": 73.2244152}
{"code": "xd", "name": "Saint Kitts-Nevis", "geocoded_name": "Nevis, Figtree, Saint John Figtree, Nevis, Saint Kitts and Nevis", "latitude": 17.1508813, "longitude": -62.5852896007}
{"code": "xe", "name": "Marshall Islands", "geocoded_name": "Marshall Islands", "latitude": 8.9995549, "longitude": 168.0002575}
{"code": "xf", "name": "Midway Islands", "geocoded_name": "Midway Atoll, United States", "latitude": 28.2417536, "longitude": -177.3754308}
{"code": "xga", "name": "Coral Sea Islands Territory", "geocoded_name": "Coral Sea Islands, Australia", "latitude": -17.4512186, "longitude": 151.6138383}
{"code": "xh", "name": "Niue", "geocoded_name": "Niu\u0113", "latitude": -19.0536414, "longitude": -169.861341}
{"code": "-xi", "name": "Saint Kitts-Nevis-Anguilla", "geocoded_name": "St. Kitts-Nevis-Anguilla National Bank Ltd., Lower Prince William Street, Charlestown, Saint Paul Charlestown, Nevis, Saint Kitts and Nevis", "latitude": 17.13789415, "longitude": -62.628838720276754}
{"code": "xj", "name": "Saint Helena", "geocoded_name": "Saint Helena, Sandy Bay, Saint Helena, STHL 1ZZ, Saint Helena, Ascension and Tristan da Cunha", "latitude": -15.9694573, "longitude": -5.7129442}
{"code": "xk", "name": "Saint Lucia", "geocoded_name": "Saint Lucia", "latitude": 13.8250489, "longitude": -60.975036}
{"code": "xl", "name": "Saint Pierre and Miquelon", "geocoded_name": "Saint-Pierre-et-Miquelon, 97500, France", "latitude": 46.783246899999995, "longitude": -56.195158907484085}
{"code": "xm", "name": "Saint Vincent and the Grenadines", "geocoded_name": "Saint Vincent and the Grenadines", "latitude": 12.90447, "longitude": -61.2765569}
{"code": "xn", "name": "North Macedonia", "geocoded_name": "\u0421\u0435\u0432\u0435\u0440\u043d\u0430 \u041c\u0430\u043a\u0435\u0434\u043e\u043d\u0438\u0458\u0430", "latitude": 41.6171214, "longitude": 21.7168387}
{"code": "xna", "name": "New South Wales", "geocoded_name": "New South Wales, Australia", "latitude": -31.8759835, "longitude": 147.2869493}
{"code": "xo", "name": "Slovakia", "geocoded_name": "Slovensko", "latitude": 48.7411522, "longitude": 19.4528646}
{"code": "xoa", "name": "Northern Territory", "geocoded_name": "Northern Territory, Australia", "latitude": -19.8516101, "longitude": 133.2303375}
{"code": "xp", "name": "Spratly Island", "geocoded_name": "Spratly Island, Th\u1ecb tr\u1ea5n Tr\u01b0\u1eddng Sa, Huy\u1ec7n Tr\u01b0\u1eddng Sa, T\u1ec9nh Kh\u00e1nh H\u00f2a, Vi\u1ec7t Nam", "latitude": 8.6465494, "longitude": 111.9205723}
{"code": "xr", "name": "Czech Republic", "geocoded_name": "\u010cesko", "latitude": 49.7439047, "longitude": 15.3381061}
{"code": "xra", "name": "South Australia", "geocoded_name": "South Australia, Australia", "latitude": -30.5343665, "longitude": 135.6301212}
{"code": "xs", "name": "South Georgia and the South Sandwich Islands", "geocoded_name": "South Georgia and the South Sandwich Islands", "latitude": -54.8432857, "longitude": -35.8090698}
{"code": "xv", "name": "Slovenia", "geocoded_name": "Slovenija", "latitude": 45.8133113, "longitude": 14.4808369}
{"code": "xx", "name": "No place, unknown, or undetermined"}
{"code": "xxc", "name": "Canada", "geocoded_name": "Canada", "latitude": 61.0666922, "longitude": -107.991707}
{"code": "xxk", "name": "United Kingdom", "geocoded_name": "United Kingdom", "latitude": 54.7023545, "longitude": -3.2765753}
{"code": "-xxr", "name": "Soviet Union", "geocoded_name": "Soviet Union, Strada Lacului, Slobozia, Ialomi\u021ba, 920012, Rom\u00e2nia", "latitude": 44.566633350000004, "longitude": 27.359792969682104}
{"code": "xxu", "name": "United States", "geocoded_name": "United States", "latitude": 39.7837304, "longitude": -100.445882}
{"code": "ye", "name": "Yemen", "geocoded_name": "\u0627\u0644\u064a\u0645\u0646", "latitude": 16.3471243, "longitude": 47.8915271}
{"code": "ykc", "name": "Yukon Territory", "geocoded_name": "Yukon, Canada", "latitude": 63.000147, "longitude": -136.002502}
{"code": "-ys", "name": "Yemen (People's Democratic Republic)"}
{"code": "-yu", "name": "Serbia and Montenegro"}
{"code": "za", "name": "Zambia", "geocoded_name": "Zambia", "latitude": -14.5189121, "longitude": 27.5589884}
